NMEA Sentences Acquisiton Log
Created by Guilherme Hollweg
Available on github.com/hollweg
Last modification: 09/2016
 
$GPRMC,034937.00,V,,,,,,,210916,,,N*7A
$GPVTG,,,,,,,,,N*30
$G$GPTXT,01,01,02,ANTSTATUS=OK*3B
$GPRMC,034938.00,V,,,,,,,210916,,,N*75
$GPVTG,,,,,,,,,N*30
$GPGGA,034938.00,,,,,0,00,99.99,,,,,6
G,,,$GPRMC,034939.00,V,,,,,,,210916,,,N*74
$GPVTG,,,,,,,,,N*30
$GPGGA,034939.00,,,,,0,00,99.99,,,,,6G,,,,$GPRMC,034939.50,A,2940.89393,S,05348.87599,W,4.576,,210916,,,A*74
$GPVTG,,T,,M,4.576,N,8.475,K,A*2GG,435,4.33,3879W,5.326M.,,6
G$GPRMC,034940.00,A,2940.89386,S,05348.88101,W,0.936,,210916,,,$GPRMC,034941.00,A,2940.89305,S,05348.88232,W,0.830,,210916,,,A*73
$GPVTG,,T,,M,0.830,N,1.538,K,*GG,4102090S5483,15132.M.M,9$GA,1$GPRMC,034942.00,A,2940.89205,S,05348.88220,W,0.359,,210916,,,A*76
$GPVTG,,T,,M,0.359,N,0.665,K,*
GG04202090S5482W15.324M.M*$G,,1$GPRMC,034943.00,A,2940.89205,S,05348.88377,W,0.175,,210916,,,A*78
$GPVTG,,T,,M,0.175,N,0.325,K,A2
PG0930,40S5887W15.321M.M*E$GA,1$GPRMC,034944.00,A,2940.89194,S,05348.88400,W,1.168,,210916,,,A*7E
$GPVTG,,T,,M,1.168,N,2.163,K,A2
NMEA Sentences Acquisiton Log
Created by Guilherme Hollweg
Available on github.com/hollweg
Last modification: 09/2016
 
‚bšŠbŠšªb’ŠRº‚jR":‚:5eÅ$b’b‚²b’²bªšb’ºªbš’b’Êbš’b‚º’b’ÊRºÂjR":‚$GPTXT,01,01,02,ANTSTATUS=OK*3B
$GPRMC,034951.00,V,,,,,,,210916,,,N*7A
$GPVTG,,,,,,,,,N*30
$GPGGA,034951.00,,,,,0,05,3.91,,,,,,2
NMEA Sentences Acquisiton Log
Created by Guilherme Hollweg
Available on github.com/hollweg
Last modification: 09/2016
 
$GPRMC,034954.00,V,,,,,,,210916,,,N*7F
$GPVTG,,,,,,,,,N*30
$GPGGA,034954.00,,,,,0,05,3.69,,,,,,*50
P$GPTXT,01,01,02,ANTSTATUS=OK*3B
$GPRMC,034955.00,V,,,,,,,210916,,,N*7E
$GPVTG,,,,,,,,,N*30
$GPGGA,034955.00,,,,,0,05,3.90,,,,,*7
PA81$GPRMC,034956.00,A,2940.89754,S,05348.88557,W,2.120,,210916,,,A*7B
$GPVTG,,T,,M,2.120,N,3.926,K,2G,35.9095S0485,,0,817,85,*$GA,1,$GPRMC,034957.00,A,2940.89607,S,05348.88375,W,3.110,,210916,,,A*79
$GPVTG,,T,,M,3.110,N,5.760,K,2GG,4702080S0487,15142.M.M*3$GA,1$GPRMC,034958.00,A,2940.89508,S,05348.88459,W,2.757,,210916,,,A*77
$GPVTG,,T,,M,2.757,N,5.105,K,2
GG04802090S5885W15.426M.M*$G,,1$GPRMC,034959.00,A,2940.89413,S,05348.88466,W,2.995,,210916,,,A*71
$GPVTG,,T,,M,2.995,N,5.546,K,A6
PA3990241S5886W15.,00,5M*$G,,1$GPRMC,035000.00,A,2940.89412,S,05348.88492,W,2.014,,210916,,,A*7F
$GPVTG,,T,,M,2.014,N,3.730,K,A2
GG000024.S5489,151427M.M,1$PA,,$GPRMC,035001.00,A,2940.89350,S,05348.88501,W,1.460,,210916,,,A*70
$GPVTG,,T,,M,1.460,N,2.704,K,A1$PA30.0208S5880W14.923,.M*$G,31$GPRMC,035002.00,A,2940.89339,S,05348.88495,W,0.055,,210916,,,A*73
$GPVTG,,T,,M,0.055,N,0.103,K,2GG05202093S5489,151428,.M*9$GA,1$GPRMC,035003.00,A,2940.89421,S,05348.88469,W,1.176,,210916,,,A*7E
$GPVTG,,T,,M,1.176,N,2.178,K,*GG,5002092S5486,15142.M.,,6$PA,,$GPRMC,035004.00,A,2940.89397,S,05348.88488,W,0.280,,210916,,,A*77
$GPVTG,,T,,M,0.280,N,0.518,K,2GG,5402099S5488,151426,.M*A$GA,1$GPRMC,035005.00,A,2940.89501,S,05348.88435,W,1.099,,210916,,,A*72
$GPVTG,,T,,M,1.099,N,2.035,K,*GG,5502080S0484,10142.M.M,6$PA,1$GPRMC,035006.00,A,2940.89574,S,05348.88406,W,0.876,,210916,,,A*7B
$GPVTG,,T,,M,0.876,N,1.622,K,*GG,5602087S5480,15142.M.,*5$GA,1$GPRMC,035007.00,A,2940.89608,S,05348.88389,W,0.673,,210916,,,A*79
$GPVTG,,T,,M,0.673,N,1.247,K,*GG,5702090S5488,15142.M.,,2$GA,1$GPRMC,035008.00,A,2940.89615,S,05348.88375,W,0.079,,210916,,,A*75
$GPVTG,,T,,M,0.079,N,0.147,K,*GG,5802081S0483,10142.M.,,C$GA,1$GPRMC,035009.00,A,2940.89574,S,05348.88382,W,0.007,,210916,,,A*71
$GPVTG,,T,,M,0.007,N,0.013,K,2
GG05902097S5488,15.429M.M*1$G,,1$GPRMC,035010.00,A,2940.89523,S,05348.88385,W,1.143,,210916,,,A*7C
$GPVTG,,T,,M,1.143,N,2.116,K,A2
PG0000243S5888W15.426M.M,3$GA,1$GPRMC,035011.00,A,2940.89481,S,05348.88414,W,1.260,,210916,,,A*79
$GPVTG,,T,,M,1.260,N,2.333,K,A2
PG30.0248S5881W15.426M.M,5$G,,1$GPRMC,035012.00,A,2940.89453,S,05348.88426,W,1.067,,210916,,,A*71
$GPVTG,,T,,M,1.067,N,1.976,K,AA
PA00.024.S5482,151428M.M*6$GA,1$GPRMC,035013.00,A,2940.89456,S,05348.88435,W,0.436,,210916,,,A*76
$GPVTG,,T,,M,0.436,N,0.808,K,A2
PG003024.S5883W15.420M.M,9$GA,1$GPRMC,035014.00,A,2940.89486,S,05348.88422,W,0.126,,210916,,,A*7E
$GPVTG,,T,,M,0.126,N,0.234,K,A2
PG00.0248S5482W15.424M.M,1$PA,1$GPRMC,035015.00,A,2940.89495,S,05348.88408,W,0.179,,210916,,,A*7F
$GPVTG,,T,,M,0.179,N,0.331,K,A2
PA00.024.S5480,151431M.M,7$G,,1$GPRMC,035016.00,A,2940.89477,S,05348.88414,W,0.101,,210916,,,A*72
$GPVTG,,T,,M,0.101,N,0.187,K,A2
PG006024.S0484,15.435M.M,1$PA,,$GPRMC,035017.00,A,2940.89493,S,05348.88413,W,0.251,,210916,,,A*78
$GPVTG,,T,,M,0.251,N,0.465,K,A2
GG00.024.S5481,151437M.M,F$PA,1$GPRMC,035018.00,A,2940.89514,S,05348.88452,W,1.345,,210916,,,A*79
$GPVTG,,T,,M,1.345,N,2.491,K,A2
PA30.0248S5885W15.424M.M,0$G,,1$GPRMC,035019.00,A,2940.89438,S,05348.88430,W,0.604,,210916,,,A*72
$GPVTG,,T,,M,0.604,N,1.119,K,A9$PA30.0208S5883W,,.,14,5M*$G,31$GPRMC,035020.00,A,2940.89478,S,05348.88415,W,0.176,,210916,,,A*79
$GPVTG,,T,,M,0.176,N,0.327,K,*GG,5202097S5481,15143.M.,,E$PA,,$GPRMC,035021.00,A,2940.89473,S,05348.88408,W,0.244,,210916,,,A*7D
$GPVTG,,T,,M,0.244,N,0.451,K,2
GG05102097S5880W15.435M.M*$G,,1$GPRMC,035022.00,A,2940.89451,S,05348.88420,W,0.125,,210916,,,A*70
$GPVTG,,T,,M,0.125,N,0.232,K,A2
PA0020,41S5882W15.,20,.M*9$GA,1$GPRMC,035023.00,A,2940.89505,S,05348.88415,W,0.232,,210916,,,A*72
$GPVTG,,T,,M,0.232,N,0.430,K,A7$PA30.0208S5881W,,.,67,5M*$G,,1$GPRMC,035024.00,A,2940.89508,S,05348.88428,W,0.235,,210916,,,A*71
$GPVTG,,T,,M,0.235,N,0.435,K,2GG,5402090S5482W,5.,27,.M*0$GA,1$GPRMC,035025.00,A,2940.89511,S,05348.88434,W,0.128,,210916,,,A*7A
$GPVTG,,T,,M,0.128,N,0.237,K,2GG,5502091S5483,15.,28,.M*A$GA,1$GPRMC,035026.00,A,2940.89475,S,05348.88457,W,0.094,,210916,,,A*79
$GPVTG,,T,,M,0.094,N,0.175,K,*$G,5602087S5485,15142.M.,,4
PA,1$GPRMC,035027.00,A,2940.89448,S,05348.88460,W,0.425,,210916,,,A*7C
$GPVTG,,T,,M,0.425,N,0.787,K,A2
GG05702094S5486W,5.,25,5M*$G,,$GPRMC,035028.00,A,2940.89451,S,05348.88452,W,0.166,,210916,,,A*78
$GPVTG,,T,,M,0.166,N,0.308,K,A2
PG00.024.S0485W15.521,.M*C$GA,1$GPRMC,035029.00,A,2940.89433,S,05348.88454,W,0.199,,210916,,,A*7B
$GPVTG,,T,,M,0.199,N,0.368,K,AF
PA00.024.S5885W,5.,29,.M*4$G,,1$GPRMC,035030.00,A,2940.89431,S,05348.88453,W,0.163,,210916,,,A*73
$GPVTG,,T,,M,0.163,N,0.302,K,A6
PA00.0248S5885W15.524,5M*$G,,1$GPRMC,035031.00,A,2940.89391,S,05348.88450,W,0.152,,210916,,,A*7E
$GPVTG,,T,,M,0.152,N,0.281,K,A2
PA00.0248S5885W,5.,29,.M*5$GA,1$GPRMC,035032.00,A,2940.89388,S,05348.88455,W,0.044,,210916,,,A*76
$GPVTG,,T,,M,0.044,N,0.081,K,AA$PA30.0208S5885W,,.,32,5M*GG,31$GPRMC,035033.00,A,2940.89401,S,05348.88452,W,0.170,,210916,,,A*70
$GPVTG,,T,,M,0.170,N,0.315,K,2GG,5302090S5485,161522,.M*2$GA,1$GPRMC,035034.00,A,2940.89419,S,05348.88460,W,0.444,,210916,,,A*7D
$GPVTG,,T,,M,0.444,N,0.823,K,2GG,5402081S5886W16.,25,.M*B$GA,1$GPRMC,035035.00,A,2940.89426,S,05348.88476,W,0.317,,210916,,,A*76
$GPVTG,,T,,M,0.317,N,0.587,K,*GG,5502092S5487,16152.M.,,1
PA,1$GPRMC,035036.00,A,2940.89404,S,05348.88484,W,0.343,,210916,,,A*79
$GPVTG,,T,,M,0.343,N,0.635,K,A2
GG05602090S5488W,6.,26,5M*$G,,$GPRMC,035037.00,A,2940.89381,S,05348.88484,W,0.449,,210916,,,A*7F
$GPVTG,,T,,M,0.449,N,0.832,K,A3
PA00.0248S5488W,6.,28,5M*$G,,1$GPRMC,035038.00,A,2940.89369,S,05348.88475,W,0.364,,210916,,,A*70
$GPVTG,,T,,M,0.364,N,0.673,K,A0
PA00.0248S5487,16.525M.M*0$G,,1$GPRMC,035039.00,A,2940.89365,S,05348.88477,W,0.024,,210916,,,A*78
$GPVTG,,T,,M,0.024,N,0.045,K,A2
PG0090248S5887W16.526M.M,C$GA,1$GPRMC,035040.00,A,2940.89329,S,05348.88488,W,1.009,,210916,,,A*70
$GPVTG,,T,,M,1.009,N,1.868,K,AC$PA30.0208S5888W15.,26,5M*GG,31$GPRMC,035041.00,A,2940.89303,S,05348.88492,W,0.768,,210916,,,A*73
$GPVTG,,T,,M,0.768,N,1.422,K,*GG,5402480,04.9,15302.M.,,F$PA,,$GPRMC,035042.00,A,2940.89189,S,05348.88511,W,2.624,,210916,,,A*71
$GPVTG,,T,,M,2.624,N,4.860,K,*GG,5202099S5881W16.526M.M,1$GA,1$GPRMC,035043.00,A,2940.89203,S,05348.88513,W,0.902,,210916,,,A*7A
$GPVTG,,T,,M,0.902,N,1.671,K,*GG,5402480S5481,16.522M.M,7$PA,,$GPRMC,035044.00,A,2940.89230,S,05348.88503,W,0.231,,210916,,,A*77
$GPVTG,,T,,M,0.231,N,0.428,K,*GG,5402083S0485W16.525M.M,6$GA,1$GPRMC,035045.00,A,2940.89248,S,05348.88493,W,0.283,,210916,,,A*78
$GPVTG,,T,,M,0.283,N,0.524,K,*GG,5402094S5489,16152.M.M,0$PA,,$GPRMC,035046.00,A,2940.89264,S,05348.88477,W,0.525,,210916,,,A*74
$GPVTG,,T,,M,0.525,N,0.972,K,*GG,5602086S5887W16.529M.M,B$GA,1$GPRMC,035047.00,A,2940.89272,S,05348.88476,W,0.183,,210916,,,A*7B
$GPVTG,,T,,M,0.183,N,0.338,K,2
GG05702097S5887W,6.,23,5M*$G,,1$GPRMC,035048.00,A,2940.89289,S,05348.88461,W,0.321,,210916,,,A*7C
$GPVTG,,T,,M,0.321,N,0.595,K,AA$PA30.0249S5886W1,.,23,5M*GG,31$GPRMC,035049.00,A,2940.89274,S,05348.88464,W,0.333,,210916,,,A*79
$GPVTG,,T,,M,0.333,N,0.617,K,*GG,5902087S0886W16.526,.M*B$GA,1$GPRMC,035050.00,A,2940.89282,S,05348.88461,W,0.210,,210916,,,A*7D
$GPVTG,,T,,M,0.210,N,0.390,K,2
GG05002092S5886W16.,26,5M*$G,,1$GPRMC,035051.00,A,2940.89318,S,05348.88447,W,1.162,,210916,,,A*7D
$GPVTG,,T,,M,1.162,N,2.151,K,A2
PA30.0248S5884W16.,23,.M*E$G,31$GPRMC,035052.00,A,2940.89383,S,05348.88420,W,0.380,,210916,,,A*72
$GPVTG,,T,,M,0.380,N,0.704,K,A2
PG002024.S0484,16.529M.M,7$PA,,$GPRMC,035053.00,A,2940.89437,S,05348.88383,W,0.368,,210916,,,A*73
$GPVTG,,T,,M,0.368,N,0.681,K,A1$PA30.0208S5888W16.524,.M*$G,31$GPRMC,035054.00,A,2940.89436,S,05348.88278,W,0.500,,210916,,,A*78
$GPVTG,,T,,M,0.500,N,0.926,K,*GG,5502483,5487,16152.M.M,F$PA,,$GPRMC,035055.00,A,2940.89453,S,05348.88240,W,0.108,,210916,,,A*7D
$GPVTG,,T,,M,0.108,N,0.200,K,2
GG05502093S5884W1,.,61,5M*$G,,1$GPRMC,035056.00,A,2940.89480,S,05348.88237,W,0.605,,210916,,,A*7A
$GPVTG,,T,,M,0.605,N,1.120,K,A2$PA35.0240,5883W,,.,6,,5,*GG,31$GPRMC,035057.00,A,2940.89475,S,05348.88240,W,0.232,,210916,,,A*71
$GPVTG,,T,,M,0.232,N,0.429,K,2
GG00709095,3880,,,8,6,,5,6GS,38$GPRMC,035058.00,A,2940.89530,S,05348.88237,W,0.519,,210916,,,A*70
$GPVTG,,T,,M,0.519,N,0.961,K,A0$PA30.0240S5883W,,.,67,5,*GG,31$GPRMC,035059.00,A,2940.89524,S,05348.88272,W,0.068,,210916,,,A*76
$GPVTG,,T,,M,0.068,N,0.125,K,2GG,5902092S5487,16.,26,.M*C$GA,1$GPRMC,035100.00,A,2940.89516,S,05348.88290,W,0.361,,210916,,,A*7C
$GPVTG,,T,,M,0.361,N,0.669,K,2GG,5002081S5489,161525,.M*F$GA,1$GPRMC,035101.00,A,2940.89543,S,05348.88297,W,0.401,,210916,,,A*7B
$GPVTG,,T,,M,0.401,N,0.744,K,*
GG05102094S5489,16.524M.M,8$G,,1$GPRMC,035102.00,A,2940.89507,S,05348.88334,W,0.364,,210916,,,A*74
$GPVTG,,T,,M,0.364,N,0.674,K,A2
PA31.0247S5883W16.525,.M*2$G,,1$GPRMC,035103.00,A,2940.89489,S,05348.88349,W,0.113,,210916,,,A*7A
$GPVTG,,T,,M,0.113,N,0.210,K,A3$PA31.0208S5884W16.,59,5M*$G,,1$GPRMC,035104.00,A,2940.89462,S,05348.88359,W,0.274,,210916,,,A*7B
$GPVTG,,T,,M,0.274,N,0.507,K,2GG,5402096S5485,16.,20,.M*9$GA,1$GPRMC,035105.00,A,2940.89447,S,05348.88370,W,0.119,,210916,,,A*7E
$GPVTG,,T,,M,0.119,N,0.221,K,*GG,5502084S5487,16152.M.,,F$GA,1$GPRMC,035106.00,A,2940.89424,S,05348.88379,W,0.056,,210916,,,A*7B
$GPVTG,,T,,M,0.056,N,0.104,K,*GG,5002082S0487W16.523M.M,B$PA,,$GPRMC,035107.00,A,2940.89401,S,05348.88389,W,0.113,,210916,,,A*72
$GPVTG,,T,,M,0.113,N,0.209,K,2
GG05702090S5488W16.626,.M*$G,,1$GPRMC,035108.00,A,2940.89396,S,05348.88388,W,0.113,,210916,,,A*75
$GPVTG,,T,,M,0.113,N,0.210,K,A3
PA31.0246S5888W,6.,24,.M*1$G,31$GPRMC,035109.00,A,2940.89390,S,05348.88411,W,0.736,,210916,,,A*74
$GPVTG,,T,,M,0.736,N,1.363,K,A6$PA31.0208S5881W,6.,23,5M*GG,31$GPRMC,035110.00,A,2940.89376,S,05348.88420,W,0.228,,210916,,,A*7C
$GPVTG,,T,,M,0.228,N,0.422,K,*GG,5102087S0482,16.622M.M,7$PA,,$GPRMC,035111.00,A,2940.89376,S,05348.88410,W,0.142,,210916,,,A*71
$GPVTG,,T,,M,0.142,N,0.262,K,*GG,5102087S5881W16.621M.M,9$GA,1$GPRMC,035112.00,A,2940.89376,S,05348.88409,W,0.123,,210916,,,A*7D
$GPVTG,,T,,M,0.123,N,0.228,K,*GG,5102087S5480,16.622M.M,1$PA,,$GPRMC,035113.00,A,2940.89383,S,05348.88383,W,0.147,,210916,,,A*71
$GPVTG,,T,,M,0.147,N,0.272,K,*$G,5102488,0488,16162.M.,,D
PA,,$GPRMC,035114.00,A,2940.89387,S,05348.88417,W,0.083,,210916,,,A*71
$GPVTG,,T,,M,0.083,N,0.153,K,A2
GG05402097S5881W,6.,94,5M*$G,,$GPRMC,035115.00,A,2940.89388,S,05348.88436,W,0.025,,210916,,,A*70
$GPVTG,,T,,M,0.025,N,0.046,K,A2
PG01.0248S5883W16.632M.M,2$GA,1$GPRMC,035116.00,A,2940.89392,S,05348.88447,W,0.011,,210916,,,A*79
$GPVTG,,T,,M,0.011,N,0.021,K,A2
PG01.0248S5484W16.636M.M,8$P,,1$GPRMC,035117.00,A,2940.89396,S,05348.88463,W,0.028,,210916,,,A*70
$GPVTG,,T,,M,0.028,N,0.051,K,A2
PG017024.S5886W16.630M.M,C$GA,1$GPRMC,035118.00,A,2940.89405,S,05348.88466,W,0.070,,210916,,,A*7A
$GPVTG,,T,,M,0.070,N,0.129,K,A2
PG0180248S5886W16.638M.M,2$GA,1$GPRMC,035119.00,A,2940.89410,S,05348.88488,W,0.168,,210916,,,A*77
$GPVTG,,T,,M,0.168,N,0.311,K,A2
PG019024.S5488W16.631M.M,E$PA,1$GPRMC,035120.00,A,2940.89410,S,05348.88501,W,0.137,,210916,,,A*77
$GPVTG,,T,,M,0.137,N,0.253,K,A2
PG01.024.S5480W16.,29,.M*4$GA,1$GPRMC,035121.00,A,2940.89408,S,05348.88508,W,0.058,,210916,,,A*7E
$GPVTG,,T,,M,0.058,N,0.108,K,A2
PG011024.S0485W16.625M.M,9$GA,1$GPRMC,035122.00,A,2940.89402,S,05348.88506,W,0.025,,210916,,,A*73
$GPVTG,,T,,M,0.025,N,0.046,K,A2
PG012024.S5880W16.627M.M*C$GA,1$GPRMC,035123.00,A,2940.89397,S,05348.88499,W,0.025,,210916,,,A*7E
$GPVTG,,T,,M,0.025,N,0.046,K,A6$PA31.0208S5889W16.,98,5M*GG,31$GPRMC,035124.00,A,2940.89406,S,05348.88504,W,0.045,,210916,,,A*75
$GPVTG,,T,,M,0.045,N,0.083,K,*GG,5402080S0480W16.626M.M*D$GA,1$GPRMC,035125.00,A,2940.89412,S,05348.88508,W,0.045,,210916,,,A*7D
$GPVTG,,T,,M,0.045,N,0.083,K,2
GG05502092S5880W16.624M5M*$G,,1$GPRMC,035126.00,A,2940.89417,S,05348.88510,W,0.037,,210916,,,A*77
$GPVTG,,T,,M,0.037,N,0.068,K,A9
PA0160241S5481W16.,20,.M*$G,,1$GPRMC,035127.00,A,2940.89435,S,05348.88515,W,0.479,,210916,,,A*7D
$GPVTG,,T,,M,0.479,N,0.888,K,A2
PG017024.S0481W16.626M.M,F$GA,1$GPRMC,035128.00,A,2940.89463,S,05348.88500,W,0.922,,210916,,,A*76
$GPVTG,,T,,M,0.922,N,1.708,K,A2
PA01.024.S5880W16.,26,.M*7$GA,1$GPRMC,035129.00,A,2940.89499,S,05348.88478,W,1.825,121.27,210916,,,A*62
$GPVTG,121.27,T,,M,1.825N.9,3GGA01,484,03.48,0,81.M8,,6
PSA,,6$GPRMC,035130.00,A,2940.89506,S,05348.88389,W,2.487,111.87,210916,,,A*6A
$GPVTG,111.87,T,,M,2.487,.6,3GG,5002086S5888W16.628M.M*5
GG,,6$GPRMC,035131.00,A,2940.89531,S,05348.88334,W,2.240,,210916,,,A*74
$GPVTG,,T,,M,2.240,N,4.149,K,AF$PA31.,9.51,3.84,,,81.,8,,6
GSA3$GPRMC,035132.00,A,2940.89519,S,05348.88273,W,1.452,,210916,,,A*79
$GPVTG,,T,,M,1.452,N,2.690,K,A2GG05202099S5887W,6.,24,.M*1$G,,$GPRMC,035133.00,A,2940.89497,S,05348.88238,W,1.293,140.44,210916,,,A*60
$GPVTG,140.44,T,,M,1.29N29KAC$PA33.,4.4,,3.2,,0181.,8,,6
GSA,86$GPRMC,035134.00,A,2940.89505,S,05348.88257,W,1.841,195.87,210916,,,A*66
$GPVTG,195.87,T,,M,1.841,4,,3
GG01409095S5885W16.629,5M*0
PS,,,$GPRMC,035135.00,A,2940.89502,S,05348.88246,W,0.634,,210916,,,A*71
$GPVTG,,T,,M,0.634,N,1.175,K,A0$PA31.,9.52,3.86,,,8,9,8,,6
GSA3$GPRMC,035136.00,A,2940.89482,S,05348.88218,W,0.117,,210916,,,A*76
$GPVTG,,T,,M,0.117,N,0.216,K,A1
PA01.09.92,3888,,,8,0,85,6GS,3$GPRMC,035137.00,A,2940.89487,S,05348.88219,W,0.089,,210916,,,A*75
$GPVTG,,T,,M,0.089,N,0.164,K,A2
PG01.0248S5881W16.623M.M,8$GA,1$GPRMC,035138.00,A,2940.89509,S,05348.88201,W,0.112,,210916,,,A*77
$GPVTG,,T,,M,0.112,N,0.207,K,A4
PA31.0248S5880W16.621M.M*$G,,1$GPRMC,035139.00,A,2940.89543,S,05348.88200,W,0.143,,210916,,,A*7D
$GPVTG,,T,,M,0.143,N,0.264,K,A2
PG0190248S5880W16.624M.M,1$GA,1$GPRMC,035140.00,A,2940.89558,S,05348.88208,W,0.325,,210916,,,A*73
$GPVTG,,T,,M,0.325,N,0.601,K,A2
PA01.0208S5880W,6.,28,.M*E$GA31$GPRMC,035141.00,A,2940.89568,S,05348.88216,W,0.481,,210916,,,A*77
$GPVTG,,T,,M,0.481,N,0.890,K,A2
PG01.024.S5481W16.,28,.M*3$GA,1$GPRMC,035142.00,A,2940.89569,S,05348.88218,W,0.069,,210916,,,A*79
$GPVTG,,T,,M,0.069,N,0.128,K,A2
PG012024.S5881W16.626M.M,1$GA,1$GPRMC,035143.00,A,2940.89558,S,05348.88240,W,0.576,,210916,,,A*7C
$GPVTG,,T,,M,0.576,N,1.066,K,A6$PA31.0208S5884W16.670,5M*$G,31$GPRMC,035144.00,A,2940.89588,S,05348.88235,W,1.283,174.96,210916,,,A*6B
$GPVTG,174.96,T,,M,1.28N27KA9$GA34.,4.5,,3.2,,0361.,8,,6
PSA,86$GPRMC,035145.00,A,2940.89574,S,05348.88235,W,0.129,,210916,,,A*78
$GPVTG,,T,,M,0.129,N,0.238,K,A0$GA340,485,03.25,0,61.,8,,6
PAA3$GPRMC,035146.00,A,2940.89505,S,05348.88251,W,1.245,270.00,210916,,,A*6C
$GPVTG,270.00,T,,M,1.245N.0K*D$G,5402080S0482,10171.M.,,3
PS,,6$GPRMC,035147.00,A,2940.89462,S,05348.88245,W,0.141,,210916,,,A*75
$GPVTG,,T,,M,0.141,N,0.261,K,A2$PA31.,4.4,,3.85,0181.,8,,6
GSA3$GPRMC,035148.00,A,2940.89445,S,05348.88248,W,0.129,,210916,,,A*7C
$GPVTG,,T,,M,0.129,N,0.239,K,A2
PG01809095S5888W,,.,59,5,*GG,3$GPRMC,035149.00,A,2940.89445,S,05348.88238,W,0.022,,210916,,,A*70
$GPVTG,,T,,M,0.022,N,0.040,K,A7
PA01.0248S5883W16.726M5M*$G,,1$GPRMC,035150.00,A,2940.89424,S,05348.88242,W,0.037,,210916,,,A*76
$GPVTG,,T,,M,0.037,N,0.069,K,A8$PA31.0908S5884W,6.,2,,5,*GG,31$GPRMC,035151.00,A,2940.89376,S,05348.88247,W,0.014,,210916,,,A*73
$GPVTG,,T,,M,0.014,N,0.026,K,2
GG01109096,5887,,,3,6,,5,6GS,38$GPRMC,035152.00,A,2940.89364,S,05348.88246,W,0.034,,210916,,,A*70
$GPVTG,,T,,M,0.034,N,0.064,K,A6$GA35.0244,5884,,,3,6,,5,6GS,38$GPRMC,035153.00,A,2940.89387,S,05348.88237,W,0.025,,210916,,,A*7A
$GPVTG,,T,,M,0.025,N,0.047,K,2GG,5302098S5483,16142.M.M*6$GA,1$GPRMC,035154.00,A,2940.89421,S,05348.88224,W,0.033,,210916,,,A*73
$GPVTG,,T,,M,0.033,N,0.061,K,*GG,5502092S5482W16.424M.M,E$GA,1$GPRMC,035155.00,A,2940.89411,S,05348.88225,W,0.016,,210916,,,A*77
$GPVTG,,T,,M,0.016,N,0.030,K,2GG05502091S5482W16.,23,.M*$G,,1$GPRMC,035156.00,A,2940.89407,S,05348.88231,W,0.127,,210916,,,A*75
NMEA Sentences Acquisiton Log
Created by Guilherme Hollweg
Available on github.com/hollweg
Last modification: 09/2016
 
$GPRMC,035159.00,A,2940.89332,S,05348.88179,W,0.197,,210916,,,A*7F
$GPVTG,,T,,M,0.197,N,0.365,K,A*2C
GG,550,9.92S04.19,,6.41.M85,*$GPRMC,035200.00,A,2940.89347,S,05348.88187,W,0.091,,210916,,,A*74
$GPVTG,,T,,M,0,6A$,029,.,6,,,S,,1,,,33,8*$G,,1,,032,,83,,813,$GPRMC,035201.00,A,2940.89433,S,05348.88226,W,0.067,,210916,,,A*70
$GPVTG,,T,,M,0.067,N,0.124,K,*GG05109093S5882W16.423,.M*AGG,31$GPRMC,035202.00,A,2940.89408,S,05348.88226,W,0.136,,210916,,,A*7E
$GPVTG,,T,,M,0.136,N,0.251,K,*GG,5002080S5882W16.429M.M,A$GA,1$GPRMC,035203.00,A,2940.89404,S,05348.88226,W,0.036,,210916,,,A*72
$GPVTG,,T,,M,0.036,N,0.066,K,*GG05302094S5882W16.427,.M*$G,31$GPRMC,035204.00,A,2940.89408,S,05348.88210,W,0.115,,210916,,,A*7C
$GPVTG,,T,,M,0.115,N,0.213,K,2
GG05409098S5881W16.,21,5M*GG,31$GPRMC,035205.00,A,2940.89428,S,05348.88197,W,0.119,,210916,,,A*7F
$GPVTG,,T,,M,0.119,N,0.220,K,AA$PA32.0248S5889W16.,37,5M*GG,31$GPRMC,035206.00,A,2940.89436,S,05348.88195,W,0.055,,210916,,,A*78
$GPVTG,,T,,M,0.055,N,0.102,K,*GG,5602093S5489W16.424M.M,0$G,,1$GPRMC,035207.00,A,2940.89450,S,05348.88193,W,0.043,,210916,,,A*78
$GPVTG,,T,,M,0.043,N,0.079,K,2GG,5709090S5889W,6.,22,.M*1$GA31$GPRMC,035208.00,A,2940.89447,S,05348.88196,W,0.028,,210916,,,A*79
$GPVTG,,T,,M,0.028,N,0.052,K,2GG02809097S5889W16.,29,.M*7$G,31$GPRMC,035209.00,A,2940.89450,S,05348.88194,W,0.013,,210916,,,A*74
$GPVTG,,T,,M,0.013,N,0.025,K,2GG,5902095S5889W,6.,28,.M*3$GA,1$GPRMC,035210.00,A,2940.89461,S,05348.88191,W,0.082,,210916,,,A*73
$GPVTG,,T,,M,0.082,N,0.152,K,2GG,5009091S5889W,6.,20,.M*5$GA,1$GPRMC,035211.00,A,2940.89457,S,05348.88193,W,0.024,,210916,,,A*79
$GPVTG,,T,,M,0.024,N,0.045,K,*GG,5102087S5889W16.428M.M*A$GA,1$GPRMC,035212.00,A,2940.89457,S,05348.88196,W,0.020,,210916,,,A*7B
$GPVTG,,T,,M,0.020,N,0.037,K,2GG,5202095S5489,16.,29,.M*D$G,,1$GPRMC,035213.00,A,2940.89455,S,05348.88200,W,0.021,,210916,,,A*75
$GPVTG,,T,,M,0.021,N,0.038,K,2
GG05302095S5880W,6.,27,5M*$G,,1$GPRMC,035214.00,A,2940.89454,S,05348.88202,W,0.017,,210916,,,A*74
$GPVTG,,T,,M,0.017,N,0.032,K,A4$GA31.0244,5880W,6.,2,,5,*GS,38$GPRMC,035215.00,A,2940.89448,S,05348.88202,W,0.085,,210916,,,A*73
$GPVTG,,T,,M,0.085,N,0.158,K,*GG,5102494S5480,16.425M.M,6$PA,,$GPRMC,035216.00,A,2940.89452,S,05348.88203,W,0.017,,210916,,,A*71
$GPVTG,,T,,M,0.017,N,0.031,K,*GG,5602092S5880W16.424,.M*E$G,31$GPRMC,035217.00,A,2940.89455,S,05348.88203,W,0.028,,210916,,,A*7B
$GPVTG,,T,,M,0.028,N,0.052,K,*GG,5702085S0880W16.423M.M*F$GA,1$GPRMC,035218.00,A,2940.89456,S,05348.88201,W,0.004,,210916,,,A*7B
$GPVTG,,T,,M,0.004,N,0.007,K,2GG05802095S5480W16.,22,.M*$G,,1$GPRMC,035219.00,A,2940.89457,S,05348.88200,W,0.008,,210916,,,A*76
$GPVTG,,T,,M,0.008,N,0.014,K,2
GG05909097S5880W16.421,5M*$G,31$GPRMC,035220.00,A,2940.89457,S,05348.88199,W,0.009,,210916,,,A*7E
$GPVTG,,T,,M,0.009,N,0.017,K,AC$PA32.0247S5889W,6.,20,5,*GG,31$GPRMC,035221.00,A,2940.89458,S,05348.88197,W,0.007,,210916,,,A*70
$GPVTG,,T,,M,0.007,N,0.013,K,*GG,5102095S5889W16.429M.M,0$GA,1$GPRMC,035222.00,A,2940.89459,S,05348.88193,W,0.014,,210916,,,A*74
$GPVTG,,T,,M,0.014,N,0.025,K,2GG,5202095S5489,161,28,.M*7$G,,1$GPRMC,035223.00,A,2940.89459,S,05348.88192,W,0.009,,210916,,,A*78
$GPVTG,,T,,M,0.009,N,0.017,K,2
GG05309099S5889W16.,17,5M*$G,31$GPRMC,035224.00,A,2940.89460,S,05348.88192,W,0.026,,210916,,,A*78
$GPVTG,,T,,M,0.026,N,0.048,K,AB
PA0240246,5889W,6.,16,5M*$G,,1$GPRMC,035225.00,A,2940.89462,S,05348.88193,W,0.020,,210916,,,A*7C
$GPVTG,,T,,M,0.020,N,0.038,K,AA
PA32.0908S5889W,6.,25,.M*5GG,31$GPRMC,035226.00,A,2940.89463,S,05348.88193,W,0.011,,210916,,,A*7C
$GPVTG,,T,,M,0.011,N,0.021,K,A2
PA02.024.S5889W,6.,24,.M*6$G,,1$GPRMC,035227.00,A,2940.89464,S,05348.88194,W,0.012,,210916,,,A*7E
$GPVTG,,T,,M,0.012,N,0.023,K,A1$PA32.0908S5889W,6.,23,.M*GG,31$GPRMC,035228.00,A,2940.89465,S,05348.88195,W,0.010,,210916,,,A*73
$GPVTG,,T,,M,0.010,N,0.019,K,2
GG05802095S5889W16.,12,5M*$G,,1$GPRMC,035229.00,A,2940.89466,S,05348.88196,W,0.002,,210916,,,A*71
$GPVTG,,T,,M,0.002,N,0.003,K,A2
PA0290246S5889W,6.,20,.M*D$G,,1$GPRMC,035230.00,A,2940.89467,S,05348.88195,W,0.004,,210916,,,A*7D
$GPVTG,,T,,M,0.004,N,0.007,K,A0$PA32.0208S5889W1,.,08,5M*GG,31$GPRMC,035231.00,A,2940.89468,S,05348.88196,W,0.022,,210916,,,A*74
$GPVTG,,T,,M,0.022,N,0.041,K,2
GG05102098S5889W,,.,07,5M*$G,31$GPRMC,035232.00,A,2940.89469,S,05348.88195,W,0.061,,210916,,,A*72
$GPVTG,,T,,M,0.061,N,0.113,K,A7$PA32.0249S5889W17.,26,.M*GG,31$GPRMC,035233.00,A,2940.89471,S,05348.88195,W,0.006,,210916,,,A*7B
$GPVTG,,T,,M,0.006,N,0.011,K,*GG,5302087S5889W17.725M.M*4$GA,1$GPRMC,035234.00,A,2940.89473,S,05348.88194,W,0.019,,210916,,,A*71
$GPVTG,,T,,M,0.019,N,0.034,K,*GG,5302087S0489W17.724M.M,1$PA,1$GPRMC,035235.00,A,2940.89476,S,05348.88194,W,0.018,,210916,,,A*74
$GPVTG,,T,,M,0.018,N,0.034,K,*GG,5302487S5489,171723M.M,2$PA,,$GPRMC,035236.00,A,2940.89477,S,05348.88193,W,0.006,,210916,,,A*7E
$GPVTG,,T,,M,0.006,N,0.011,K,*GG,5602087S0489W17.723M.M,7$PA,1$GPRMC,035237.00,A,2940.89478,S,05348.88193,W,0.015,,210916,,,A*72
$GPVTG,,T,,M,0.015,N,0.027,K,2
GG05702097S5489W17.,22,5M*$G,,1$GPRMC,035238.00,A,2940.89478,S,05348.88195,W,0.013,,210916,,,A*7D
$GPVTG,,T,,M,0.013,N,0.024,K,A7$PA3280248S5889W17.702,5M*$G,31$GPRMC,035239.00,A,2940.89479,S,05348.88197,W,0.017,,210916,,,A*7B
$GPVTG,,T,,M,0.017,N,0.031,K,2
GG05902099S5889W17.,01,5M*$G,,1$GPRMC,035240.00,A,2940.89480,S,05348.88199,W,0.014,,210916,,,A*7E
$GPVTG,,T,,M,0.014,N,0.027,K,A3
PA0200240,5889W,7.,22,.M*$G,,1$GPRMC,035241.00,A,2940.89481,S,05348.88200,W,0.016,,210916,,,A*7F
$GPVTG,,T,,M,0.016,N,0.029,K,A2
PG02.0208S5880W17.,22,.M*6$GA,1$GPRMC,035242.00,A,2940.89482,S,05348.88200,W,0.006,,210916,,,A*7E
$GPVTG,,T,,M,0.006,N,0.012,K,A6$GA34.0908,5880W,,2,0,,5,*GG,38$GPRMC,035243.00,A,2940.89484,S,05348.88200,W,0.001,,210916,,,A*7E
$GPVTG,,T,,M,0.001,N,0.001,K,2
GG05309094S5880W17.,01,5M*$G,31$GPRMC,035244.00,A,2940.89485,S,05348.88200,W,0.005,,210916,,,A*7C
$GPVTG,,T,,M,0.005,N,0.010,K,A7
PA32.0245S5880W,7.,21,.M*4$G,31$GPRMC,035245.00,A,2940.89485,S,05348.88201,W,0.014,,210916,,,A*7C
$GPVTG,,T,,M,0.014,N,0.025,K,A1$GA34.0908,5880W,7.,21,5,*GG,38$GPRMC,035246.00,A,2940.89486,S,05348.88202,W,0.017,,210916,,,A*7C
$GPVTG,,T,,M,0.017,N,0.031,K,2
GG05602096S5880W17.721,5M*$G,,1$GPRMC,035247.00,A,2940.89486,S,05348.88202,W,0.005,,210916,,,A*7E
$GPVTG,,T,,M,0.005,N,0.010,K,A7
PA34.0246,5880W,7.,21,.M*$G,38$GPRMC,035248.00,A,2940.89485,S,05348.88201,W,0.010,,210916,,,A*75
$GPVTG,,T,,M,0.010,N,0.018,K,AB$GA34.,908,5880W,7.,01,5M*GS,38$GPRMC,035249.00,A,2940.89484,S,05348.88201,W,0.014,,210916,,,A*71
$GPVTG,,T,,M,0.014,N,0.025,K,*GG05902098S5880W17.720M.M,8$G,,1$GPRMC,035250.00,A,2940.89484,S,05348.88200,W,0.017,,210916,,,A*7B
$GPVTG,,T,,M,0.017,N,0.031,K,*GG,5502488,0480,17.720M.M,1$PA,,$GPRMC,035251.00,A,2940.89483,S,05348.88199,W,0.001,,210916,,,A*79
$GPVTG,,T,,M,0.001,N,0.001,K,2GG,5102098S5489,17172.M.M*5$GA,1$GPRMC,035252.00,A,2940.89482,S,05348.88200,W,0.006,,210916,,,A*7F
$GPVTG,,T,,M,0.006,N,0.010,K,*GG,5202088S5880W17.721M.M*4$GA,1$GPRMC,035253.00,A,2940.89480,S,05348.88200,W,0.000,,210916,,,A*7A
$GPVTG,,T,,M,0.000,N,0.000,K,*GG,5302090S5880W17.721M.M*7$GA,1$GPRMC,035254.00,A,2940.89479,S,05348.88202,W,0.012,,210916,,,A*7A
$GPVTG,,T,,M,0.012,N,0.022,K,2
GG05402097S5480W17.721,5M*$G,,1$GPRMC,035255.00,A,2940.89479,S,05348.88203,W,0.010,,210916,,,A*78
$GPVTG,,T,,M,0.010,N,0.018,K,A2
PG0250,47S5880W17.721M.M*4$GA,1$GPRMC,035256.00,A,2940.89479,S,05348.88205,W,0.009,,210916,,,A*75
$GPVTG,,T,,M,0.009,N,0.017,K,AC$GA35.0908,5880W,,2,0,,5,*GG,31$GPRMC,035257.00,A,2940.89478,S,05348.88207,W,0.013,,210916,,,A*7C
$GPVTG,,T,,M,0.013,N,0.024,K,*GG,5702098S5880W17.720,.M*2$GA,1$GPRMC,035258.00,A,2940.89479,S,05348.88208,W,0.009,,210916,,,A*76
$GPVTG,,T,,M,0.009,N,0.017,K,*GG,5809099S5880W17.719M.M*0$GA31$GPRMC,035259.00,A,2940.89479,S,05348.88208,W,0.008,,210916,,,A*76
$GPVTG,,T,,M,0.008,N,0.015,K,2GG,5902097S5480,171,19,.M*1$GA,1$GPRMC,035300.00,A,2940.89481,S,05348.88210,W,0.017,,210916,,,A*7B
$GPVTG,,T,,M,0.017,N,0.032,K,2
GG05002098S5881W17.718M5M*$G,,1$GPRMC,035301.00,A,2940.89481,S,05348.88212,W,0.002,,210916,,,A*7C
$GPVTG,,T,,M,0.002,N,0.003,K,A2
PA0310241,5881W,7.,17,5M*$G,,1$GPRMC,035302.00,A,2940.89480,S,05348.88212,W,0.010,,210916,,,A*7D
$GPVTG,,T,,M,0.010,N,0.019,K,AA$GA30.0908,5881W,7.,16,5,*GG,38$GPRMC,035303.00,A,2940.89479,S,05348.88213,W,0.016,,210916,,,A*7D
$GPVTG,,T,,M,0.016,N,0.030,K,2
GG05302097S5881W17.,96,5M*$G,,1$GPRMC,035304.00,A,2940.89478,S,05348.88214,W,0.009,,210916,,,A*72
$GPVTG,,T,,M,0.009,N,0.016,K,AD$PA30.0248,5881W,7.,14,.,*GG,31$GPRMC,035305.00,A,2940.89477,S,05348.88215,W,0.005,,210916,,,A*71
$GPVTG,,T,,M,0.005,N,0.009,K,2GG,5502097S5481,171713,.M*1$GA,1$GPRMC,035306.00,A,2940.89475,S,05348.88217,W,0.014,,210916,,,A*72
$GPVTG,,T,,M,0.014,N,0.027,K,*GG,5002097S5481,17.713M.M,2$PA,,$GPRMC,035307.00,A,2940.89473,S,05348.88219,W,0.010,,210916,,,A*7F
$GPVTG,,T,,M,0.010,N,0.019,K,2
GG05702093S5881W17.792,5M*$G,,1$GPRMC,035308.00,A,2940.89472,S,05348.88221,W,0.011,,210916,,,A*7B
$GPVTG,,T,,M,0.011,N,0.021,K,A0$PA33.0242S5882W,7.,91,5,*GG,31$GPRMC,035309.00,A,2940.89471,S,05348.88224,W,0.011,,210916,,,A*7C
$GPVTG,,T,,M,0.011,N,0.021,K,*GG,5902097S5482,17.710M.M,A$G,,1$GPRMC,035310.00,A,2940.89470,S,05348.88226,W,0.012,,210916,,,A*74
$GPVTG,,T,,M,0.012,N,0.021,K,2GG,5002097S5482,171,19,.M*9$GA,1$GPRMC,035311.00,A,2940.89469,S,05348.88229,W,0.016,,210916,,,A*76
$GPVTG,,T,,M,0.016,N,0.029,K,2GG05102096S5482,17.,18,.M*$G,,1$GPRMC,035312.00,A,2940.89469,S,05348.88232,W,0.003,,210916,,,A*7B
$GPVTG,,T,,M,0.003,N,0.005,K,2GG05202096S5483W17.,16,.M*$G,,1$GPRMC,035313.00,A,2940.89469,S,05348.88233,W,0.004,,210916,,,A*7C
$GPVTG,,T,,M,0.004,N,0.008,K,2GG,5302086S0483W17.715,.M*A$GA,1$GPRMC,035314.00,A,2940.89471,S,05348.88236,W,0.008,,210916,,,A*7B
$GPVTG,,T,,M,0.008,N,0.016,K,2
GG05402097S5883W17.714,5M*$G,,1$GPRMC,035315.00,A,2940.89470,S,05348.88238,W,0.009,,210916,,,A*74
$GPVTG,,T,,M,0.009,N,0.017,K,AC
PA0350240S5883W,7.,13,.M*9$GA,1$GPRMC,035316.00,A,2940.89470,S,05348.88240,W,0.014,,210916,,,A*74
$GPVTG,,T,,M,0.014,N,0.026,K,A2
PG0360208S5884W17.711,.M*7$GA,1$GPRMC,035317.00,A,2940.89470,S,05348.88242,W,0.003,,210916,,,A*71
$GPVTG,,T,,M,0.003,N,0.006,K,A6
PA33.0248S5884W17.781,5M*$G,31$GPRMC,035318.00,A,2940.89469,S,05348.88243,W,0.008,,210916,,,A*7C
$GPVTG,,T,,M,0.008,N,0.014,K,AE$GA31.0908,5884W,7.,10,5,*GG,38$GPRMC,035319.00,A,2940.89470,S,05348.88244,W,0.006,,210916,,,A*7C
$GPVTG,,T,,M,0.006,N,0.011,K,2GG,5902087S0484W17.719M.M*B$GA,1$GPRMC,035320.00,A,2940.89469,S,05348.88245,W,0.018,,210916,,,A*70
$GPVTG,,T,,M,0.018,N,0.033,K,*GG,5002086S0482W17.718M.M*9$GA,1$GPRMC,035321.00,A,2940.89466,S,05348.88246,W,0.015,,210916,,,A*70
$GPVTG,,T,,M,0.015,N,0.028,K,2GG05102096S5484,17.,18,.M*4$G,,1$GPRMC,035322.00,A,2940.89465,S,05348.88247,W,0.008,,210916,,,A*7D
$GPVTG,,T,,M,0.008,N,0.014,K,2GG,5202085S5884W17.,17,.M*A$GA,1$GPRMC,035323.00,A,2940.89463,S,05348.88248,W,0.009,,210916,,,A*74
$GPVTG,,T,,M,0.009,N,0.017,K,*GG,5302086S0484W17.717M.M,2$GA,1$GPRMC,035324.00,A,2940.89462,S,05348.88249,W,0.006,,210916,,,A*7C
$GPVTG,,T,,M,0.006,N,0.011,K,2GG,5402096S5484,,7.,16,.M*4$G,,1$GPRMC,035325.00,A,2940.89460,S,05348.88248,W,0.004,,210916,,,A*7C
$GPVTG,,T,,M,0.004,N,0.007,K,2
GG05502096S5884W17.776,5M*$G,,1$GPRMC,035326.00,A,2940.89459,S,05348.88247,W,0.021,,210916,,,A*7D
$GPVTG,,T,,M,0.021,N,0.039,K,A2
PA3360249S5884W17.716M.M*0$G,,1$GPRMC,035327.00,A,2940.89459,S,05348.88246,W,0.010,,210916,,,A*7F
$GPVTG,,T,,M,0.010,N,0.018,K,AB$PA33.0908S5884W,7.,16,5,*GG,31$GPRMC,035328.00,A,2940.89459,S,05348.88244,W,0.013,,210916,,,A*71
$GPVTG,,T,,M,0.013,N,0.024,K,2GG,5802099S5884W17.717,.M*C$GA,1$GPRMC,035329.00,A,2940.89458,S,05348.88243,W,0.010,,210916,,,A*75
$GPVTG,,T,,M,0.010,N,0.019,K,2
GG05902095S5484W17.717M5M*$G,,1$GPRMC,035330.00,A,2940.89458,S,05348.88243,W,0.008,,210916,,,A*74
$GPVTG,,T,,M,0.008,N,0.015,K,AF
PA03.0248S5884W,7.,17,.M*3$G,31$GPRMC,035331.00,A,2940.89458,S,05348.88242,W,0.014,,210916,,,A*79
$GPVTG,,T,,M,0.014,N,0.025,K,A1$GA33.0908,5884W,7.,17,.M*GG,31$GPRMC,035332.00,A,2940.89458,S,05348.88242,W,0.011,,210916,,,A*7F
$GPVTG,,T,,M,0.011,N,0.020,K,2GG,5202098S5884W17.718M.M*F$GA,1$GPRMC,035333.00,A,2940.89458,S,05348.88241,W,0.016,,210916,,,A*7A
$GPVTG,,T,,M,0.016,N,0.030,K,2
GG05309098S5884W,,.,78,5M*$G,31$GPRMC,035334.00,A,2940.89459,S,05348.88241,W,0.015,,210916,,,A*7F
$GPVTG,,T,,M,0.015,N,0.027,K,A2$GA33.0249,5884W,7.,19,5,*GG,31$GPRMC,035335.00,A,2940.89459,S,05348.88240,W,0.018,,210916,,,A*72
$GPVTG,,T,,M,0.018,N,0.033,K,*GG,5502095S5484,17171.M.M,C$PA,1$GPRMC,035336.00,A,2940.89459,S,05348.88239,W,0.014,,210916,,,A*73
$GPVTG,,T,,M,0.014,N,0.025,K,2GG05602095S5483W,7.,10,.M*1$G,,1$GPRMC,035337.00,A,2940.89460,S,05348.88237,W,0.020,,210916,,,A*71
$GPVTG,,T,,M,0.020,N,0.037,K,*GG,5302096S5483,17171.M.M,5$PA,,$GPRMC,035338.00,A,2940.89461,S,05348.88235,W,0.000,,210916,,,A*7F
$GPVTG,,T,,M,0.000,N,0.001,K,*GG,5802086S0482W17.711M.M,9$GA,1$GPRMC,035339.00,A,2940.89463,S,05348.88233,W,0.010,,210916,,,A*7B
$GPVTG,,T,,M,0.010,N,0.019,K,2
GG05909093S5883W17.,81,5M*$G,,1$GPRMC,035340.00,A,2940.89465,S,05348.88232,W,0.014,,210916,,,A*76
$GPVTG,,T,,M,0.014,N,0.025,K,A2
PA0300,46S5483W,7.,12,.M*6$GA,1$GPRMC,035341.00,A,2940.89468,S,05348.88230,W,0.006,,210916,,,A*7B
$GPVTG,,T,,M,0.006,N,0.011,K,A5
PA03.024.S5883W,7.,13,.M*9$GA,1$GPRMC,035342.00,A,2940.89469,S,05348.88228,W,0.005,,210916,,,A*73
$GPVTG,,T,,M,0.005,N,0.009,K,A2
PG032024.S5882W17.714M.M*5$GA,1$GPRMC,035343.00,A,2940.89471,S,05348.88227,W,0.020,,210916,,,A*73
$GPVTG,,T,,M,0.020,N,0.037,K,A2
PA33.0208S5882W,7.,15,.M*3$G,31$GPRMC,035344.00,A,2940.89473,S,05348.88225,W,0.016,,210916,,,A*71
$GPVTG,,T,,M,0.016,N,0.030,K,A7
PA03.0908S5882W,7.,16,.M*7$GA31$GPRMC,035345.00,A,2940.89475,S,05348.88225,W,0.021,,210916,,,A*72
$GPVTG,,T,,M,0.021,N,0.039,K,AA
PA34.0908S5882W,7.,16,.M*0$G,31$GPRMC,035346.00,A,2940.89478,S,05348.88224,W,0.001,,210916,,,A*7F
$GPVTG,,T,,M,0.001,N,0.003,K,A1
PA03.024.S5882W,7.,16,.M*F$G,,1$GPRMC,035347.00,A,2940.89481,S,05348.88223,W,0.012,,210916,,,A*7D
$GPVTG,,T,,M,0.012,N,0.022,K,A0
PA34.0908,5882W,7.,17,5M*$G,38$GPRMC,035348.00,A,2940.89485,S,05348.88222,W,0.022,,210916,,,A*74
$GPVTG,,T,,M,0.022,N,0.041,K,A2
PG0380248S5882W17.717M.M,4$GA,1$GPRMC,035349.00,A,2940.89490,S,05348.88223,W,0.009,,210916,,,A*79
$GPVTG,,T,,M,0.009,N,0.016,K,A2
PA33.0208S5882W17.717,.M*0$G,31$GPRMC,035350.00,A,2940.89495,S,05348.88224,W,0.015,,210916,,,A*7E
$GPVTG,,T,,M,0.015,N,0.027,K,A2
PG030024.S5882W17.717,.M*A$GA,1$GPRMC,035351.00,A,2940.89500,S,05348.88224,W,0.004,,210916,,,A*72
$GPVTG,,T,,M,0.004,N,0.008,K,AF$PA33.0208S5882W,,.,88,5,*GG,31$GPRMC,035352.00,A,2940.89504,S,05348.88222,W,0.077,,210916,,,A*77
$GPVTG,,T,,M,0.077,N,0.143,K,2GG,5202090S5482,171718,.M*8$G,,1$GPRMC,035353.00,A,2940.89508,S,05348.88220,W,0.004,,210916,,,A*7C
$GPVTG,,T,,M,0.004,N,0.007,K,*GG,5502090S5482,171719M.M,6$PA,1$GPRMC,035354.00,A,2940.89511,S,05348.88220,W,0.005,,210916,,,A*72
$GPVTG,,T,,M,0.005,N,0.009,K,*GG,5402091S5882W17.710M.M*1$GA,1$GPRMC,035355.00,A,2940.89513,S,05348.88219,W,0.008,,210916,,,A*76
$GPVTG,,T,,M,0.008,N,0.014,K,*GG05502091S5481,17.711M.M,9$G,,1$GPRMC,035356.00,A,2940.89515,S,05348.88218,W,0.021,,210916,,,A*79
$GPVTG,,T,,M,0.021,N,0.039,K,2
GG03609095S5881W,,.,92,5M*$G,31$GPRMC,035357.00,A,2940.89517,S,05348.88217,W,0.015,,210916,,,A*72
$GPVTG,,T,,M,0.015,N,0.027,K,A2
PA3370247S5881W17.714,.M*4$G,31$GPRMC,035358.00,A,2940.89521,S,05348.88215,W,0.005,,210916,,,A*7B
$GPVTG,,T,,M,0.005,N,0.009,K,AF
PA33.0248S5881W17.,95,5M*$G,,1$GPRMC,035359.00,A,2940.89525,S,05348.88214,W,0.012,,210916,,,A*79
$GPVTG,,T,,M,0.012,N,0.023,K,A1$PA33.0248S5881W,,.,97,5M*$G,,1$GPRMC,035400.00,A,2940.89527,S,05348.88212,W,0.013,,210916,,,A*77
$GPVTG,,T,,M,0.013,N,0.024,K,*GG05009097S5881W17.719M.M*A$G,31$GPRMC,035401.00,A,2940.89532,S,05348.88211,W,0.008,,210916,,,A*7B
$GPVTG,,T,,M,0.008,N,0.015,K,2
GG05102092S5881W,,.,00,5M*$G,,1$GPRMC,035402.00,A,2940.89535,S,05348.88209,W,0.028,,210916,,,A*74
$GPVTG,,T,,M,0.028,N,0.052,K,AE
PA3420245S5880W17.,01,5M*$G,,1$GPRMC,035403.00,A,2940.89538,S,05348.88208,W,0.010,,210916,,,A*72
$GPVTG,,T,,M,0.010,N,0.018,K,AB
PA34.0248S5880W17.703,5M*$G,,1$GPRMC,035404.00,A,2940.89540,S,05348.88206,W,0.006,,210916,,,A*73
$GPVTG,,T,,M,0.006,N,0.011,K,A2
PG0440248S5880W17.724,.M*D$GA,1$GPRMC,035405.00,A,2940.89542,S,05348.88203,W,0.002,,210916,,,A*71
$GPVTG,,T,,M,0.002,N,0.003,K,A2
PA04.0908,5880W,7.,26,5M*$G,,1$GPRMC,035406.00,A,2940.89545,S,05348.88202,W,0.012,,210916,,,A*75
$GPVTG,,T,,M,0.012,N,0.022,K,A2
PA04.0208S5880W,7.,28,.M*2$GA,1$GPRMC,035407.00,A,2940.89547,S,05348.88201,W,0.009,,210916,,,A*7F
$GPVTG,,T,,M,0.009,N,0.017,K,AC$PA34.0208S5880W,,.,10,5,*GG,31$GPRMC,035408.00,A,2940.89550,S,05348.88199,W,0.037,,210916,,,A*79
$GPVTG,,T,,M,0.037,N,0.068,K,*GG,5002095S5489W17.722M.M,2$PA,1$GPRMC,035409.00,A,2940.89554,S,05348.88199,W,0.008,,210916,,,A*70
$GPVTG,,T,,M,0.008,N,0.015,K,*GG05902095S5489,17.723M.M,6$G,,1$GPRMC,035410.00,A,2940.89556,S,05348.88198,W,0.018,,210916,,,A*7A
$GPVTG,,T,,M,0.018,N,0.034,K,2
GG04009096S5889W17.,25,.M*$G,31$GPRMC,035411.00,A,2940.89559,S,05348.88198,W,0.007,,210916,,,A*7A
$GPVTG,,T,,M,0.007,N,0.014,K,A2
PG0410,45S0489W17.727,.M*7$GA,1$GPRMC,035412.00,A,2940.89562,S,05348.88198,W,0.008,,210916,,,A*7E
$GPVTG,,T,,M,0.008,N,0.015,K,AF
PA34.0248S5889W17.,18,5M*$G,,1$GPRMC,035413.00,A,2940.89564,S,05348.88198,W,0.018,,210916,,,A*78
$GPVTG,,T,,M,0.018,N,0.034,K,A2
PA04.024.S5489W,7.,29,.M*5$GA,1$GPRMC,035414.00,A,2940.89565,S,05348.88198,W,0.012,,210916,,,A*74
$GPVTG,,T,,M,0.012,N,0.023,K,A2
PG044024.S0489W17.720M.M,9$GA,1$GPRMC,035415.00,A,2940.89566,S,05348.88197,W,0.010,,210916,,,A*7B
$GPVTG,,T,,M,0.010,N,0.018,K,A2$PA34.0208S5889W17.,21,.M*GG,31$GPRMC,035416.00,A,2940.89566,S,05348.88197,W,0.017,,210916,,,A*7F
$GPVTG,,T,,M,0.017,N,0.032,K,2GG,5602096S5489,171722,.M*5$G,,1$GPRMC,035417.00,A,2940.89566,S,05348.88196,W,0.018,,210916,,,A*70
$GPVTG,,T,,M,0.018,N,0.034,K,*GG05702096S5489,17.723M.M,4$P,,1$GPRMC,035418.00,A,2940.89566,S,05348.88197,W,0.015,,210916,,,A*73
$GPVTG,,T,,M,0.015,N,0.028,K,2GG,5802086S5489W17.724,.M*D$GA,1$GPRMC,035419.00,A,2940.89565,S,05348.88196,W,0.004,,210916,,,A*70
$GPVTG,,T,,M,0.004,N,0.008,K,2
GG05909095S5889W17.,26,5M*$G,,1$GPRMC,035420.00,A,2940.89565,S,05348.88196,W,0.013,,210916,,,A*7C
$GPVTG,,T,,M,0.013,N,0.024,K,A2
PG0400,45S5889W17.727,.M*7$GA,1$GPRMC,035421.00,A,2940.89566,S,05348.88196,W,0.009,,210916,,,A*75
$GPVTG,,T,,M,0.009,N,0.018,K,A2
PG0410248S5889W17.728M.M*A$GA,1$GPRMC,035422.00,A,2940.89567,S,05348.88197,W,0.007,,210916,,,A*78
$GPVTG,,T,,M,0.007,N,0.014,K,A1$PA32.0908,5889W,7.,29,5,*GG,31$GPRMC,035423.00,A,2940.89568,S,05348.88197,W,0.014,,210916,,,A*74
$GPVTG,,T,,M,0.014,N,0.025,K,2
GG05302096S5489W17.729,5M*$G,,1$GPRMC,035424.00,A,2940.89570,S,05348.88197,W,0.015,,210916,,,A*7B
$GPVTG,,T,,M,0.015,N,0.027,K,A2
PA0440247S5489W,7.,20,5M*$G,,1$GPRMC,035425.00,A,2940.89570,S,05348.88198,W,0.007,,210916,,,A*76
$GPVTG,,T,,M,0.007,N,0.013,K,A6$PA32.0908S5889W,,.,31,5,*GG,31$GPRMC,035426.00,A,2940.89570,S,05348.88198,W,0.019,,210916,,,A*7A
$GPVTG,,T,,M,0.019,N,0.036,K,2
GG05602097S5489W17.722M.M*$G,,1$GPRMC,035427.00,A,2940.89571,S,05348.88198,W,0.006,,210916,,,A*74
$GPVTG,,T,,M,0.006,N,0.011,K,A2
PG0470,91S5889W17.722M.M,F$GA,1$GPRMC,035428.00,A,2940.89572,S,05348.88199,W,0.011,,210916,,,A*7F
$GPVTG,,T,,M,0.011,N,0.019,K,A2
PA34.0208S5889W17.723,.M*3$G,31$GPRMC,035429.00,A,2940.89573,S,05348.88200,W,0.024,,210916,,,A*7A
$GPVTG,,T,,M,0.024,N,0.045,K,A4$PA34.0208S5880W,7.,23,5M*GG,31$GPRMC,035430.00,A,2940.89574,S,05348.88201,W,0.004,,210916,,,A*76
$GPVTG,,T,,M,0.004,N,0.008,K,*GG,5002087S5880W17.723M.M*E$GA,1$GPRMC,035431.00,A,2940.89576,S,05348.88203,W,0.006,,210916,,,A*75
$GPVTG,,T,,M,0.006,N,0.011,K,*GG,5302487,04.2,17172.M.M,F$PA,,$GPRMC,035432.00,A,2940.89577,S,05348.88203,W,0.008,,210916,,,A*79
$GPVTG,,T,,M,0.008,N,0.015,K,2GG05202097S5480,17.,23,.M*$G,,1$GPRMC,035433.00,A,2940.89578,S,05348.88204,W,0.019,,210916,,,A*70
$GPVTG,,T,,M,0.019,N,0.036,K,2GG05302097S5480W17.722,5M*$G,,1$GPRMC,035434.00,A,2940.89580,S,05348.88204,W,0.003,,210916,,,A*7B
$GPVTG,,T,,M,0.003,N,0.006,K,*GG05402098S5480,17.722M.M,5$G,,1$GPRMC,035435.00,A,2940.89581,S,05348.88205,W,0.005,,210916,,,A*7C
$GPVTG,,T,,M,0.005,N,0.010,K,*
GG05502091S5880W17.722M.M*$G,,1$GPRMC,035436.00,A,2940.89582,S,05348.88206,W,0.023,,210916,,,A*7B
$GPVTG,,T,,M,0.023,N,0.042,K,A2
PA0460,48S5880W,7.,21,.M*4$GA,1$GPRMC,035437.00,A,2940.89583,S,05348.88209,W,0.011,,210916,,,A*75
$GPVTG,,T,,M,0.011,N,0.021,K,A0$PA34.0208S5880W17.,20,.M*GG,31$GPRMC,035438.00,A,2940.89583,S,05348.88209,W,0.006,,210916,,,A*7C
$GPVTG,,T,,M,0.006,N,0.011,K,*GG,5302088S0480W17.720M.M,5$PA,1$GPRMC,035439.00,A,2940.89583,S,05348.88208,W,0.014,,210916,,,A*7F
$GPVTG,,T,,M,0.014,N,0.025,K,*GG,5902088S0480W17.721M.M,4$GA,1$GPRMC,035440.00,A,2940.89583,S,05348.88208,W,0.010,,210916,,,A*75
$GPVTG,,T,,M,0.010,N,0.018,K,*GG,5002088S5880W17.721M.M*A$GA,1$GPRMC,035441.00,A,2940.89583,S,05348.88207,W,0.027,,210916,,,A*7F
$GPVTG,,T,,M,0.027,N,0.049,K,*GG,5402098S5480,171721M.M,4$PA,1$GPRMC,035442.00,A,2940.89581,S,05348.88206,W,0.018,,210916,,,A*73
$GPVTG,,T,,M,0.018,N,0.034,K,2
GG05209091S5880W,,.,31,5M*$G,31$GPRMC,035443.00,A,2940.89580,S,05348.88206,W,0.008,,210916,,,A*72
$GPVTG,,T,,M,0.008,N,0.014,K,AE
PA0430248S5480W,7.,21,5M*$G,,1$GPRMC,035444.00,A,2940.89579,S,05348.88205,W,0.009,,210916,,,A*71
$GPVTG,,T,,M,0.009,N,0.017,K,A2
PG044024.S0480W17.722M.M*5$GA,1$GPRMC,035445.00,A,2940.89580,S,05348.88205,W,0.021,,210916,,,A*7C
$GPVTG,,T,,M,0.021,N,0.039,K,A2
PG04.024.S5880W17.,22,.M*2$GA,1$GPRMC,035446.00,A,2940.89579,S,05348.88205,W,0.003,,210916,,,A*79
$GPVTG,,T,,M,0.003,N,0.006,K,A2
PG046024.S5880W17.721M.M,4$GA,1$GPRMC,035447.00,A,2940.89580,S,05348.88205,W,0.014,,210916,,,A*78
$GPVTG,,T,,M,0.014,N,0.027,K,A3$PA34.0908S5880W,,.,3,,5,*GG,31$GPRMC,035448.00,A,2940.89580,S,05348.88204,W,0.004,,210916,,,A*77
$GPVTG,,T,,M,0.004,N,0.008,K,2
GG05809090S5880W17.,30,5M*$G,31$GPRMC,035449.00,A,2940.89581,S,05348.88204,W,0.007,,210916,,,A*74
$GPVTG,,T,,M,0.007,N,0.014,K,A1
PA0490248S5880W,7.,20,.M*C$G,,1$GPRMC,035450.00,A,2940.89581,S,05348.88204,W,0.018,,210916,,,A*72
$GPVTG,,T,,M,0.018,N,0.034,K,AD$PA34.0208S5880W17.,29,.M*GG,31$GPRMC,035451.00,A,2940.89582,S,05348.88203,W,0.005,,210916,,,A*7B
$GPVTG,,T,,M,0.005,N,0.010,K,*GG,5102088S0480W17.720M.M*1$GA,1$GPRMC,035452.00,A,2940.89583,S,05348.88203,W,0.009,,210916,,,A*75
$GPVTG,,T,,M,0.009,N,0.016,K,2
GG05202093S5880W17.720,5M*$G,,1$GPRMC,035453.00,A,2940.89583,S,05348.88203,W,0.009,,210916,,,A*74
$GPVTG,,T,,M,0.009,N,0.016,K,AD
PA35.0243S5880W,7.,20,.M*2$G,31$GPRMC,035454.00,A,2940.89583,S,05348.88202,W,0.007,,210916,,,A*7C
$GPVTG,,T,,M,0.007,N,0.014,K,A1$PA34.0208S5880W17.721,5M*$G,31$GPRMC,035455.00,A,2940.89582,S,05348.88201,W,0.009,,210916,,,A*71
$GPVTG,,T,,M,0.009,N,0.016,K,2
GG05502092S5880W17.721,5M*$G,,1$GPRMC,035456.00,A,2940.89582,S,05348.88200,W,0.006,,210916,,,A*7C
$GPVTG,,T,,M,0.006,N,0.011,K,A5
PA0460,48S5880W,7.,22,.M*7$GA,1$GPRMC,035457.00,A,2940.89582,S,05348.88199,W,0.007,,210916,,,A*7F
$GPVTG,,T,,M,0.007,N,0.012,K,A7$PA34.0908S5889W,,.,32,5,*GG,31$GPRMC,035458.00,A,2940.89580,S,05348.88199,W,0.007,,210916,,,A*72
$GPVTG,,T,,M,0.007,N,0.013,K,2GG05802098S5489W17.722,.M*$G,,1$GPRMC,035459.00,A,2940.89580,S,05348.88198,W,0.016,,210916,,,A*72
$GPVTG,,T,,M,0.016,N,0.030,K,*GG,5502488,0489,171722M.M,8$PA,,$GPRMC,035500.00,A,2940.89579,S,05348.88198,W,0.009,,210916,,,A*77
$GPVTG,,T,,M,0.009,N,0.017,K,*$G,5002487S5489,17172.M.,,3
PA,,$GPRMC,035501.00,A,2940.89576,S,05348.88184,W,0.634,72.35,210916,,,D*54
$GPVTG,72.35,T,,M,0.634,N17,D9
PA35.,4.5,03.14,0,212,85,0*7
PS,$GPRMC,035502.00,A,2940.89575,S,05348.88178,W,0.031,,210916,,,D*79
$GPVTG,,T,,M,0.031,N,0.058,K,D*GG,5202095S5887W27.727M.M,06
GS$GPRMC,035503.00,A,2940.89575,S,05348.88177,W,0.020,,210916,,,D*77
$GPVTG,,T,,M,0.020,N,0.037,K,D*GG,5302095S5887W27.727M.M,06
GS$GPRMC,035504.00,A,2940.89575,S,05348.88176,W,0.003,,210916,,,D*70
$GPVTG,,T,,M,0.003,N,0.005,K,D2GG,5409095S5887W27.,27,.M006
GS$GPRMC,035505.00,A,2940.89576,S,05348.88175,W,0.007,,210916,,,D*75
$GPVTG,,T,,M,0.007,N,0.012,K,D2GG05502097S5487,27.727,.M006
PS$GPRMC,035506.00,A,2940.89577,S,05348.88174,W,0.003,,210916,,,D*72
$GPVTG,,T,,M,0.003,N,0.005,K,D2
GG05602097S5887W27.728,5M006
PS$GPRMC,035507.00,A,2940.89577,S,05348.88173,W,0.015,,210916,,,D*73
$GPVTG,,T,,M,0.015,N,0.027,K,D*GG,5002487,0481,27172.M.M,06GS$GPRMC,035508.00,A,2940.89578,S,05348.88171,W,0.012,,210916,,,D*76
$GPVTG,,T,,M,0.012,N,0.022,K,*GG,5802087S0887W27.720M.M,06
GSA$GPRMC,035509.00,A,2940.89578,S,05348.88170,W,0.119,,210916,,,D*7C
$GPVTG,,T,,M,0.119,N,0.220,K,D*GG05902097S5487W27.722M.M,06
PS$GPRMC,035510.00,A,2940.89579,S,05348.88169,W,0.020,,210916,,,D*76
$GPVTG,,T,,M,0.020,N,0.037,K,D2
GG05009099S5886W2,.,32,5M006
PA$GPRMC,035511.00,A,2940.89581,S,05348.88170,W,0.003,,210916,,,D*79
$GPVTG,,T,,M,0.003,N,0.006,K,D*GG,5102098S5487W27.721M.M,06GS$GPRMC,035512.00,A,2940.89582,S,05348.88171,W,0.011,,210916,,,D*7B
$GPVTG,,T,,M,0.011,N,0.020,K,*GG,5202098S5487,271721M.M,06
PSA$GPRMC,035513.00,A,2940.89584,S,05348.88172,W,0.017,,210916,,,D*79
$GPVTG,,T,,M,0.017,N,0.031,K,D2
GG05302098S5487W,7.,21,.M006
PS$GPRMC,035514.00,A,2940.89584,S,05348.88172,W,0.011,,210916,,,D*78
$GPVTG,,T,,M,0.011,N,0.021,K,D2GG,5409094S5887W27.,20,.M006
GS$GPRMC,035515.00,A,2940.89585,S,05348.88172,W,0.013,,210916,,,D*7A
$GPVTG,,T,,M,0.013,N,0.024,K,D2GG,5502088S5887W27.,20,.M006
GS$GPRMC,035516.00,A,2940.89587,S,05348.88170,W,0.007,,210916,,,D*7C
$GPVTG,,T,,M,0.007,N,0.014,K,D*GG,5602098S5487,27.720M.M,06GS$GPRMC,035517.00,A,2940.89589,S,05348.88168,W,0.007,,210916,,,D*7A
$GPVTG,,T,,M,0.007,N,0.013,K,*GG,5702099S5886W27.721M.M,06
PSA$GPRMC,035518.00,A,2940.89591,S,05348.88165,W,0.014,,210916,,,D*73
$GPVTG,,T,,M,0.014,N,0.025,K,D2
GG05802091S5886W27.721M.M006
PS$GPRMC,035519.00,A,2940.89592,S,05348.88163,W,0.008,,210916,,,D*7A
$GPVTG,,T,,M,0.008,N,0.015,K,D2GG05902099S5486,27.722M.M006
PS$GPRMC,035520.00,A,2940.89594,S,05348.88162,W,0.018,,210916,,,D*76
$GPVTG,,T,,M,0.018,N,0.033,K,D*GG,5002099S5886W27.723M.M,06
GS$GPRMC,035521.00,A,2940.89595,S,05348.88163,W,0.006,,210916,,,D*78
$GPVTG,,T,,M,0.006,N,0.011,K,D2GG05109095S5886W27.724,.M006
PA$GPRMC,035522.00,A,2940.89598,S,05348.88161,W,0.007,,210916,,,D*75
$GPVTG,,T,,M,0.007,N,0.013,K,D2
GG05202098S5886W2,.,34,5M006
PS$GPRMC,035523.00,A,2940.89599,S,05348.88161,W,0.010,,210916,,,D*73
$GPVTG,,T,,M,0.010,N,0.018,K,D*GG,5202489S5486,27.724M.M,06GS$GPRMC,035524.00,A,2940.89599,S,05348.88159,W,0.011,,210916,,,D*7E
$GPVTG,,T,,M,0.011,N,0.021,K,*GG,5402099S5885W27.724M.M,06
GSA$GPRMC,035525.00,A,2940.89600,S,05348.88158,W,0.012,,210916,,,D*7E
$GPVTG,,T,,M,0.012,N,0.022,K,D2GG,5502090S5885W27.724,.M006
GS$GPRMC,035526.00,A,2940.89601,S,05348.88157,W,0.011,,210916,,,D*70
$GPVTG,,T,,M,0.011,N,0.021,K,D2
PG05609091S5885W,7.,34,5M00D
PA$GPRMC,035527.00,A,2940.89602,S,05348.88157,W,0.014,,210916,,,D*77
$GPVTG,,T,,M,0.014,N,0.027,K,D*GG,5702092S5885W27.724M.M006
GS$GPRMC,035528.00,A,2940.89602,S,05348.88158,W,0.020,,210916,,,D*70
$GPVTG,,T,,M,0.020,N,0.036,K,D2GG,5809092S5885W27.,24,.M006
GS$GPRMC,035529.00,A,2940.89602,S,05348.88159,W,0.003,,210916,,,D*71
$GPVTG,,T,,M,0.003,N,0.005,K,D*GG,5902080S0485W27.724M.M006
GS$GPRMC,035530.00,A,2940.89603,S,05348.88159,W,0.008,,210916,,,D*73
$GPVTG,,T,,M,0.008,N,0.015,K,D2
GG05009093S5885W,,.,35,5M006
PA$GPRMC,035531.00,A,2940.89603,S,05348.88159,W,0.002,,210916,,,D*78
$GPVTG,,T,,M,0.002,N,0.004,K,D2GG,5109093S5885W27.,26,.M006
GS$GPRMC,035532.00,A,2940.89603,S,05348.88158,W,0.022,,210916,,,D*78
$GPVTG,,T,,M,0.022,N,0.041,K,D2
GG05209093S5885W2,.,36,5M007
PA$GPRMC,035533.00,A,2940.89603,S,05348.88158,W,0.006,,210916,,,D*7F
$GPVTG,,T,,M,0.006,N,0.012,K,D2
GG05302090S5485W,7.,26,5M006
PS$GPRMC,035534.00,A,2940.89601,S,05348.88159,W,0.014,,210916,,,D*78
$GPVTG,,T,,M,0.014,N,0.025,K,D2GG05402090S5485,27.725,.M006
PS$GPRMC,035535.00,A,2940.89599,S,05348.88158,W,0.001,,210916,,,D*7E
$GPVTG,,T,,M,0.001,N,0.002,K,D*GG05502099S5885W27.725M.M006
PS$GPRMC,035536.00,A,2940.89597,S,05348.88157,W,0.014,,210916,,,D*78
$GPVTG,,T,,M,0.014,N,0.025,K,D2
GG05602099S5485W27.725M.M006
PS$GPRMC,035537.00,A,2940.89595,S,05348.88157,W,0.007,,210916,,,D*79
$GPVTG,,T,,M,0.007,N,0.013,K,D2
GG05709095S5885W27.724,.M006
PA$GPRMC,035538.00,A,2940.89594,S,05348.88157,W,0.019,,210916,,,D*78
$GPVTG,,T,,M,0.019,N,0.035,K,D2
GG05802099S5485W27.,24,5M006
PS$GPRMC,035539.00,A,2940.89593,S,05348.88158,W,0.020,,210916,,,D*7B
$GPVTG,,T,,M,0.020,N,0.036,K,D*GG,5302089S5485,27.724M.M,06GS$GPRMC,035540.00,A,2940.89591,S,05348.88160,W,0.006,,210916,,,D*78
$GPVTG,,T,,M,0.006,N,0.011,K,2GG,5002089S5486,27172.M.M006
GSA$GPRMC,035541.00,A,2940.89589,S,05348.88161,W,0.012,,210916,,,D*74
$GPVTG,,T,,M,0.012,N,0.023,K,D*GG,5102088S5886W27.723M.M,06
GS$GPRMC,035542.00,A,2940.89587,S,05348.88162,W,0.020,,210916,,,D*7B
$GPVTG,,T,,M,0.020,N,0.037,K,D*GG,5202088S0486W27.723M.M006
GS$GPRMC,035543.00,A,2940.89584,S,05348.88163,W,0.010,,210916,,,D*7B
$GPVTG,,T,,M,0.010,N,0.019,K,D*GG05302098S5886W27.723M.M,06
PS$GPRMC,035544.00,A,2940.89583,S,05348.88163,W,0.013,,210916,,,D*78
$GPVTG,,T,,M,0.013,N,0.023,K,D*GG,5402083S5886W27.723M.M006
GS$GPRMC,035545.00,A,2940.89581,S,05348.88163,W,0.014,,210916,,,D*7C
$GPVTG,,T,,M,0.014,N,0.025,K,D*GG05502091S5886W27.724M.M006
PS$GPRMC,035546.00,A,2940.89578,S,05348.88164,W,0.014,,210916,,,D*7E
$GPVTG,,T,,M,0.014,N,0.026,K,D*GG,5602097S5486,271723M.M,06
PS$GPRMC,035547.00,A,2940.89575,S,05348.88166,W,0.014,,210916,,,D*70
$GPVTG,,T,,M,0.014,N,0.027,K,D2
GG05702095S5886W27.723M.M006
PS$GPRMC,035548.00,A,2940.89571,S,05348.88167,W,0.013,,210916,,,D*7D
$GPVTG,,T,,M,0.013,N,0.024,K,D2GG,5809091S5886W27.722,.M006
GS$GPRMC,035549.00,A,2940.89569,S,05348.88168,W,0.012,,210916,,,D*7B
$GPVTG,,T,,M,0.012,N,0.022,K,D2GG,5902099S5886W27.,22,.M006
GS$GPRMC,035550.00,A,2940.89566,S,05348.88169,W,0.002,,210916,,,D*7C
$GPVTG,,T,,M,0.002,N,0.004,K,D2GG05002096S5486,27.721M.M006
PS$GPRMC,035551.00,A,2940.89563,S,05348.88169,W,0.016,,210916,,,D*7D
$GPVTG,,T,,M,0.016,N,0.030,K,D*GG,5502496S5486,27172.M.M,06GS$GPRMC,035552.00,A,2940.89559,S,05348.88169,W,0.009,,210916,,,D*79
$GPVTG,,T,,M,0.009,N,0.017,K,*GG,5502485S0486,271720M.M,06GS,$GPRMC,035553.00,A,2940.89555,S,05348.88169,W,0.016,,210916,,,D*7A
$GPVTG,,T,,M,0.016,N,0.031,K,*GG,5502495S5486,271720M.M,06GS,$GPRMC,035554.00,A,2940.89552,S,05348.88169,W,0.000,,210916,,,D*7D
$GPVTG,,T,,M,0.000,N,0.001,K,*GG,5502095S5486,271729M.M,06GS,$GPRMC,035555.00,A,2940.89551,S,05348.88167,W,0.012,,210916,,,D*72
$GPVTG,,T,,M,0.012,N,0.023,K,2GG,5502095S5486,27172.M.M006
GSA$GPRMC,035556.00,A,2940.89548,S,05348.88167,W,0.017,,210916,,,D*7C
$GPVTG,,T,,M,0.017,N,0.032,K,D2
GG05609098S5886W27.728M5M006
PS$GPRMC,035557.00,A,2940.89547,S,05348.88168,W,0.017,,210916,,,D*7D
$GPVTG,,T,,M,0.017,N,0.031,K,D2GG05709097S5886W27.,27,.M006
PA$GPRMC,035558.00,A,2940.89545,S,05348.88168,W,0.022,,210916,,,D*76
$GPVTG,,T,,M,0.022,N,0.041,K,D*GG,5502084S5486W27.726M.M,06GS$GPRMC,035559.00,A,2940.89543,S,05348.88167,W,0.009,,210916,,,D*77
$GPVTG,,T,,M,0.009,N,0.017,K,2GG05902094S5486,271727M.M006
PSA$GPRMC,035600.00,A,2940.89540,S,05348.88167,W,0.011,,210916,,,D*72
$GPVTG,,T,,M,0.011,N,0.020,K,D2
PG06009090S5886W,7.,26,5M00C
PA$GPRMC,035601.00,A,2940.89538,S,05348.88164,W,0.012,,210916,,,D*7C
$GPVTG,,T,,M,0.012,N,0.022,K,D2
GG05102098S5886W27.726,5M006
PS$GPRMC,035602.00,A,2940.89537,S,05348.88162,W,0.006,,210916,,,D*73
$GPVTG,,T,,M,0.006,N,0.010,K,D*GG05202097S5886W27.726M.M,06
PS$GPRMC,035603.00,A,2940.89535,S,05348.88159,W,0.009,,210916,,,D*77
$GPVTG,,T,,M,0.009,N,0.017,K,D2GG05302093S5485,27.,27,.M006
PS$GPRMC,035604.00,A,2940.89533,S,05348.88156,W,0.018,,210916,,,D*79
$GPVTG,,T,,M,0.018,N,0.032,K,D2GG,5402093S5885W27.,27,.M006
GS$GPRMC,035605.00,A,2940.89532,S,05348.88154,W,0.019,,210916,,,D*7A
$GPVTG,,T,,M,0.019,N,0.036,K,D*GG,5002083S0485W27.727M.M,06GS$GPRMC,035606.00,A,2940.89529,S,05348.88151,W,0.013,,210916,,,D*7C
$GPVTG,,T,,M,0.013,N,0.024,K,2
GG05602092S5885W27.,27,5M006
PSA$GPRMC,035607.00,A,2940.89528,S,05348.88148,W,0.017,,210916,,,D*70
$GPVTG,,T,,M,0.017,N,0.031,K,D2GG05702092S5484,27.727,.M006
PS$GPRMC,035608.00,A,2940.89526,S,05348.88146,W,0.017,,210916,,,D*7F
$GPVTG,,T,,M,0.017,N,0.032,K,D2GG05802092S5484,27.,27,.M006
PS$GPRMC,035609.00,A,2940.89525,S,05348.88146,W,0.014,,210916,,,D*7E
$GPVTG,,T,,M,0.014,N,0.026,K,D*GG,5002092S5484,27.726M.M,06GS$GPRMC,035610.00,A,2940.89523,S,05348.88145,W,0.003,,210916,,,D*75
$GPVTG,,T,,M,0.003,N,0.006,K,*
GG05009093S5884W27.726M.M006
PAA$GPRMC,035611.00,A,2940.89521,S,05348.88143,W,0.025,,210916,,,D*74
$GPVTG,,T,,M,0.025,N,0.046,K,D2GG06109091S5884W27.,26,.M006
PA$GPRMC,035612.00,A,2940.89519,S,05348.88142,W,0.002,,210916,,,D*78
$GPVTG,,T,,M,0.002,N,0.004,K,D*GG05202099S5884W27.726M.M006
PS$GPRMC,035613.00,A,2940.89517,S,05348.88141,W,0.004,,210916,,,D*72
$GPVTG,,T,,M,0.004,N,0.007,K,D2
PG06309097S5884W27.,26,5M008
PA$GPRMC,035614.00,A,2940.89517,S,05348.88139,W,0.004,,210916,,,D*7A
$GPVTG,,T,,M,0.004,N,0.007,K,D2
GG05402091S5483W27.,25,5M006
PS$GPRMC,035615.00,A,2940.89516,S,05348.88139,W,0.002,,210916,,,D*7C
$GPVTG,,T,,M,0.002,N,0.004,K,D2GG,5509096S5883W27.,25,.M006
GA$GPRMC,035616.00,A,2940.89515,S,05348.88138,W,0.013,,210916,,,D*7D
$GPVTG,,T,,M,0.013,N,0.023,K,D*GG,5602081S0483W27.724M.M006
GS$GPRMC,035617.00,A,2940.89514,S,05348.88137,W,0.008,,210916,,,D*78
$GPVTG,,T,,M,0.008,N,0.015,K,D2
GG05702094S5883W27.724M.M006
PS$GPRMC,035618.00,A,2940.89513,S,05348.88136,W,0.005,,210916,,,D*7C
$GPVTG,,T,,M,0.005,N,0.010,K,D2
GG05809093S5883W27.723,5M006
PS$GPRMC,035619.00,A,2940.89512,S,05348.88136,W,0.013,,210916,,,D*7B
$GPVTG,,T,,M,0.013,N,0.024,K,D2GG,5902091S5483,271723,.M006
PS$GPRMC,035620.00,A,2940.89512,S,05348.88135,W,0.015,,210916,,,D*74
$GPVTG,,T,,M,0.015,N,0.027,K,D*GG,5002081S5483W27.722M.M,06GS$GPRMC,035621.00,A,2940.89512,S,05348.88134,W,0.011,,210916,,,D*70
$GPVTG,,T,,M,0.011,N,0.021,K,2
GG05102091S5883W27.722,5M006
PSA$GPRMC,035622.00,A,2940.89512,S,05348.88132,W,0.012,,210916,,,D*76
$GPVTG,,T,,M,0.012,N,0.022,K,D2
GG05202092S5883W27.722M5M006
PA$GPRMC,035623.00,A,2940.89512,S,05348.88129,W,0.013,,210916,,,D*7C
$GPVTG,,T,,M,0.013,N,0.024,K,D2GG05302091S5482,27.723,.M006
PS$GPRMC,035624.00,A,2940.89514,S,05348.88126,W,0.016,,210916,,,D*77
$GPVTG,,T,,M,0.016,N,0.030,K,D*GG,5402091S5482,271724M.M,06
PS$GPRMC,035625.00,A,2940.89513,S,05348.88123,W,0.006,,210916,,,D*75
$GPVTG,,T,,M,0.006,N,0.012,K,D2GG05502091S5482,27.726,.M006
PS$GPRMC,035626.00,A,2940.89513,S,05348.88120,W,0.010,,210916,,,D*72
$GPVTG,,T,,M,0.010,N,0.019,K,D2
GG06609093S5882W27.,27,5M00C
PA$GPRMC,035627.00,A,2940.89514,S,05348.88117,W,0.005,,210916,,,D*74
$GPVTG,,T,,M,0.005,N,0.010,K,D2
GG05702091S5481W27.,27,.M006
PS$GPRMC,035628.00,A,2940.89516,S,05348.88114,W,0.007,,210916,,,D*78
$GPVTG,,T,,M,0.007,N,0.012,K,D*GG,5802091S5881W27.728M.M,06
GS$GPRMC,035629.00,A,2940.89517,S,05348.88110,W,0.013,,210916,,,D*79
$GPVTG,,T,,M,0.013,N,0.023,K,D*GG,5202091S5481,27.729M.M,06GS$GPRMC,035630.00,A,2940.89518,S,05348.88107,W,0.021,,210916,,,D*79
$GPVTG,,T,,M,0.021,N,0.038,K,*GG,5002081S5880W27.720M.M,06
GSA$GPRMC,035631.00,A,2940.89518,S,05348.88104,W,0.009,,210916,,,D*71
$GPVTG,,T,,M,0.009,N,0.016,K,D*GG,5102081S0480W27.720M.M,06
GS$GPRMC,035632.00,A,2940.89518,S,05348.88101,W,0.014,,210916,,,D*7B
$GPVTG,,T,,M,0.014,N,0.026,K,D2GG,5209098S5880W27.,21,.M006
GS$GPRMC,035633.00,A,2940.89519,S,05348.88098,W,0.009,,210916,,,D*76
$GPVTG,,T,,M,0.009,N,0.017,K,D*GG,5302091S5489,27.721M.M,06GS$GPRMC,035634.00,A,2940.89521,S,05348.88094,W,0.007,,210916,,,D*78
$GPVTG,,T,,M,0.007,N,0.012,K,2
GG05402092S5489W27.722,.M006
PSA$GPRMC,035635.00,A,2940.89524,S,05348.88090,W,0.010,,210916,,,D*7E
$GPVTG,,T,,M,0.010,N,0.019,K,D*GG,5502082S5889W27.722M.M,06
GS$GPRMC,035636.00,A,2940.89525,S,05348.88087,W,0.007,,210916,,,D*7C
$GPVTG,,T,,M,0.007,N,0.013,K,D*GG,5602082S5888W27.723M.M,06
GS$GPRMC,035637.00,A,2940.89527,S,05348.88084,W,0.015,,210916,,,D*7F
$GPVTG,,T,,M,0.015,N,0.027,K,D2GG,5709097S5888W27.723,.M006
GS$GPRMC,035638.00,A,2940.89528,S,05348.88080,W,0.015,,210916,,,D*7B
$GPVTG,,T,,M,0.015,N,0.028,K,D2GG,5802092S5888W,7.,24,.M006
GS$GPRMC,035639.00,A,2940.89528,S,05348.88077,W,0.005,,210916,,,D*73
$GPVTG,,T,,M,0.005,N,0.009,K,D2
GG05902092S5887W27.,23,5M006
PS$GPRMC,035640.00,A,2940.89527,S,05348.88074,W,0.002,,210916,,,D*76
$GPVTG,,T,,M,0.002,N,0.004,K,D2
GG05009097S5887W27.,33,5M006
PS$GPRMC,035641.00,A,2940.89526,S,05348.88072,W,0.006,,210916,,,D*74
$GPVTG,,T,,M,0.006,N,0.012,K,D2
GG06109096S5887W27.,23,5M008
PA$GPRMC,035642.00,A,2940.89527,S,05348.88069,W,0.020,,210916,,,D*78
$GPVTG,,T,,M,0.020,N,0.038,K,D2
PG06209097S5886W,7.,22,5M001
PA$GPRMC,035643.00,A,2940.89528,S,05348.88065,W,0.007,,210916,,,D*7F
$GPVTG,,T,,M,0.007,N,0.013,K,D2GG,5302092S5486W27.,22,.M006
GS$GPRMC,035644.00,A,2940.89530,S,05348.88060,W,0.021,,210916,,,D*70
$GPVTG,,T,,M,0.021,N,0.038,K,D2
GG05402090S5886W2,.,32,5M006
PS$GPRMC,035645.00,A,2940.89530,S,05348.88057,W,0.007,,210916,,,D*71
$GPVTG,,T,,M,0.007,N,0.013,K,D2
GG05502093S5885W27.,21,5M006
PS$GPRMC,035646.00,A,2940.89532,S,05348.88055,W,0.002,,210916,,,D*77
$GPVTG,,T,,M,0.002,N,0.004,K,D2
GG05602093S5485W,7.,20,5M006
PS$GPRMC,035647.00,A,2940.89532,S,05348.88051,W,0.012,,210916,,,D*73
$GPVTG,,T,,M,0.012,N,0.022,K,D2GG05702093S5485W27.729,.M006
PS$GPRMC,035648.00,A,2940.89533,S,05348.88049,W,0.006,,210916,,,D*71
$GPVTG,,T,,M,0.006,N,0.012,K,D2
GG06809093S5884W,,.,28,5M007
PA$GPRMC,035649.00,A,2940.89532,S,05348.88048,W,0.008,,210916,,,D*7E
$GPVTG,,T,,M,0.008,N,0.015,K,D2GG,5902093S5484W,7.,26,.M006
GS$GPRMC,035650.00,A,2940.89532,S,05348.88047,W,0.012,,210916,,,D*72
$GPVTG,,T,,M,0.012,N,0.022,K,D2
PG06009092S5884W,7.,25,5,00C
PA$GPRMC,035651.00,A,2940.89531,S,05348.88045,W,0.004,,210916,,,D*75
$GPVTG,,T,,M,0.004,N,0.008,K,D2
GG05102093S5484,27.724,.M006
PS$GPRMC,035652.00,A,2940.89531,S,05348.88044,W,0.027,,210916,,,D*76
$GPVTG,,T,,M,0.027,N,0.050,K,D2GG05202093S5484,27.724M.M006
PS$GPRMC,035653.00,A,2940.89530,S,05348.88042,W,0.013,,210916,,,D*77
$GPVTG,,T,,M,0.013,N,0.024,K,D*GG05302093S5484W27.723M.M,06
PS$GPRMC,035654.00,A,2940.89530,S,05348.88041,W,0.010,,210916,,,D*70
$GPVTG,,T,,M,0.010,N,0.019,K,D*GG,5402090S5884W27.722M.M006
GS$GPRMC,035655.00,A,2940.89529,S,05348.88040,W,0.014,,210916,,,D*7C
$GPVTG,,T,,M,0.014,N,0.026,K,D*GG,5502082S0884W27.722M.M,06GS$GPRMC,035656.00,A,2940.89530,S,05348.88039,W,0.022,,210916,,,D*7C
$GPVTG,,T,,M,0.022,N,0.041,K,2
GG05602093S5883W27.722,5M006
PSA$GPRMC,035657.00,A,2940.89530,S,05348.88037,W,0.005,,210916,,,D*76
$GPVTG,,T,,M,0.005,N,0.010,K,D*GG,5502093S5483,27.721M.M,06GS$GPRMC,035658.00,A,2940.89531,S,05348.88035,W,0.014,,210916,,,D*7A
$GPVTG,,T,,M,0.014,N,0.026,K,*GG,5502083S5483W27.722M.M,06GSA$GPRMC,035659.00,A,2940.89533,S,05348.88033,W,0.004,,210916,,,D*7E
$GPVTG,,T,,M,0.004,N,0.008,K,*GG,5902093S5883W27.722M.M,06
GSA$GPRMC,035700.00,A,2940.89533,S,05348.88030,W,0.008,,210916,,,D*7C
$GPVTG,,T,,M,0.008,N,0.016,K,D*GG,5002083S5883W27.722M.M006
GS$GPRMC,035701.00,A,2940.89534,S,05348.88027,W,0.008,,210916,,,D*7C
$GPVTG,,T,,M,0.008,N,0.014,K,D*GG,5102093S5882W27.722M.M,06GS$GPRMC,035702.00,A,2940.89536,S,05348.88024,W,0.008,,210916,,,D*7E
$GPVTG,,T,,M,0.008,N,0.014,K,2
GG05202093S5482W27.723,5M006
PSA$GPRMC,035703.00,A,2940.89535,S,05348.88020,W,0.007,,210916,,,D*77
$GPVTG,,T,,M,0.007,N,0.013,K,D2
GG05302093S5482W27.,23,5M006
PS$GPRMC,035704.00,A,2940.89535,S,05348.88017,W,0.005,,210916,,,D*76
$GPVTG,,T,,M,0.005,N,0.010,K,D*GG,5002083S0481,27.723M.M,06GS$GPRMC,035705.00,A,2940.89536,S,05348.88014,W,0.021,,210916,,,D*71
$GPVTG,,T,,M,0.021,N,0.040,K,2GG,5502093S5481,271724M.M006
PSA$GPRMC,035706.00,A,2940.89538,S,05348.88009,W,0.006,,210916,,,D*75
$GPVTG,,T,,M,0.006,N,0.012,K,D2GG,5602093S5880W,7.,24,.M006
GS$GPRMC,035707.00,A,2940.89539,S,05348.88004,W,0.030,,210916,,,D*7D
$GPVTG,,T,,M,0.030,N,0.055,K,D2GG,5702093S5480,27.,25,.M006
PS$GPRMC,035708.00,A,2940.89538,S,05348.88001,W,0.027,,210916,,,D*70
$GPVTG,,T,,M,0.027,N,0.051,K,D2GG05802093S5480,27.726,.M006
PS$GPRMC,035709.00,A,2940.89536,S,05348.87999,W,0.015,,210916,,,D*79
$GPVTG,,T,,M,0.015,N,0.028,K,D2
GG05902096S5889W27.726M.M006
PS$GPRMC,035710.00,A,2940.89538,S,05348.87996,W,0.017,,210916,,,D*72
$GPVTG,,T,,M,0.017,N,0.032,K,D*GG,5102093S5489,271726M.M,06GS$GPRMC,035711.00,A,2940.89541,S,05348.87991,W,0.016,,210916,,,D*7B
$GPVTG,,T,,M,0.016,N,0.029,K,2GG,5102094S5489,271726,.M006
PSA$GPRMC,035712.00,A,2940.89543,S,05348.87988,W,0.013,,210916,,,D*77
$GPVTG,,T,,M,0.013,N,0.024,K,D2
GG07209093S5888W,,.,26,5M00B
PA$GPRMC,035713.00,A,2940.89545,S,05348.87983,W,0.013,,210916,,,D*7B
$GPVTG,,T,,M,0.013,N,0.024,K,D2GG,5302094S5488,27172.M.M006
GS$GPRMC,035714.00,A,2940.89545,S,05348.87980,W,0.008,,210916,,,D*75
$GPVTG,,T,,M,0.008,N,0.016,K,D*GG,5402084S0888W27.727M.M,06
GS$GPRMC,035715.00,A,2940.89545,S,05348.87978,W,0.012,,210916,,,D*78
